City,Lat,Lng,Max Temp,Humidity,Cloudiness,Wind Speed,Country,Date
Ponta do Sol,32.67,-17.1,288.15,72,40,4.6,PT,1607189664
Hilo,19.73,-155.09,294.26,73,1,3.6,US,1607189517
Kruisfontein,-34.0,24.73,292.59,81,19,1.34,ZA,1607189664
Sechura,-5.56,-80.82,298.02,60,98,5.45,PE,1607189664
Bredasdorp,-34.53,20.04,292.15,72,32,6.7,ZA,1607189665
Bethel,41.37,-73.41,277.15,86,90,6.7,US,1607189665
Arraial do Cabo,-22.97,-42.03,302.15,78,40,8.7,BR,1607189423
Harrislee,54.8,9.38,276.48,93,100,5.7,DE,1607189665
Clyde River,70.47,-68.59,257.15,77,40,7.2,CA,1607189665
Gurupá,-1.41,-51.64,307.41,45,90,2.05,BR,1607189665
Mnogovershinnyy,53.94,139.92,255.79,93,57,4.2,RU,1607189665
LaBelle,26.76,-81.44,301.48,65,40,4.1,US,1607189665
Coquimbo,-29.95,-71.34,290.15,67,20,5.7,CL,1607189665
Carnarvon,-24.87,113.63,294.15,77,52,9.3,AU,1607189665
Faanui,-16.48,-151.75,299.69,80,100,8.92,PF,1607189665
Chubbuck,42.92,-112.47,273.15,73,1,1.5,US,1607189666
Jamestown,42.1,-79.24,274.26,95,90,5.1,US,1607189421
Chokurdakh,70.63,147.92,238.51,82,70,3.28,RU,1607189666
Sulangan,11.14,123.72,300.91,82,68,7.33,PH,1607189666
Raja,8.46,25.68,300.01,18,43,2.27,SS,1607189666
Ouro Preto do Oeste,-10.75,-62.22,308.05,41,40,2.88,BR,1607189666
Duyun,26.27,107.52,276.53,87,71,0.97,CN,1607189666
Mataura,-46.19,168.86,282.59,84,40,0.91,NZ,1607189666
Atuona,-9.8,-139.03,299.04,75,61,8.29,PF,1607189666
Hasaki,35.73,140.83,279.15,100,75,2.6,JP,1607189666
Bluff,-46.6,168.33,282.59,84,30,1.54,NZ,1607189666
New Norfolk,-42.78,147.06,285.93,75,68,1.34,AU,1607189667
Barrow,71.29,-156.79,259.15,77,40,10.3,US,1607189427
Vaini,-21.2,-175.2,297.15,88,75,2.1,TO,1607189667
Qaanaaq,77.48,-69.36,247.74,68,0,3.36,GL,1607189667
Buritis,-15.62,-46.42,305.4,47,77,1.84,BR,1607189667
Klaksvík,62.23,-6.59,277.15,80,99,2.1,FO,1607189667
Petropavlovsk-Kamchatskiy,53.05,158.65,263.15,78,100,4.0,RU,1607189667
Saint Paul Harbor,57.79,-152.41,269.15,68,1,4.6,US,1607189667
Dzilam González,21.28,-88.93,300.86,72,86,3.16,MX,1607189667
Punta Arenas,-53.15,-70.92,287.15,67,75,10.8,CL,1607189606
Sainte-Maxime,43.3,6.63,279.26,100,100,1.0,FR,1607189667
Saint George,37.1,-113.58,272.15,30,1,1.36,US,1607189439
Tessalit,20.2,1.01,298.4,25,7,4.7,ML,1607189667
Tasiilaq,65.61,-37.64,270.15,53,75,2.1,GL,1607189668
Butaritari,3.07,172.79,300.51,78,80,5.1,KI,1607189668
Maués,-3.38,-57.72,306.8,46,78,1.27,BR,1607189668
Ushuaia,-54.8,-68.3,286.15,62,40,8.7,AR,1607189668
Nioki,-2.72,17.68,295.88,90,98,0.9,CD,1607189668
Mahébourg,-20.41,57.7,298.15,83,40,1.5,MU,1607189668
Chapais,49.78,-74.85,266.15,92,90,2.1,CA,1607189668
Hobart,-42.88,147.33,287.15,67,90,4.6,AU,1607188866
Salalah,17.02,54.09,299.15,50,0,2.1,OM,1607189668
Upernavik,72.79,-56.15,258.79,92,98,6.12,GL,1607189669
Ogaminana,7.59,6.22,303.03,35,94,1.33,NG,1607189669
Wanning,18.8,110.4,289.92,86,60,4.48,CN,1607189669
Esperance,-33.87,121.9,284.15,81,75,3.1,AU,1607189669
Longyearbyen,78.22,15.64,262.15,66,0,7.7,SJ,1607189622
Anchorage,61.22,-149.9,260.15,78,90,1.5,US,1607189669
Sabzawār,36.21,57.68,280.25,57,38,1.31,IR,1607189669
Matara,5.95,80.54,297.79,89,99,2.95,LK,1607189669
Constitución,-35.33,-72.42,292.22,59,10,2.55,CL,1607189669
Tadpatri,14.92,78.02,295.38,75,89,2.7,IN,1607189669
Celestún,20.87,-90.4,300.42,72,48,3.61,MX,1607189669
Vardø,70.37,31.11,274.3,91,100,12.09,NO,1607189669
Beloha,-25.17,45.05,294.12,72,77,6.18,MG,1607189669
Olinda,-8.01,-34.86,301.15,61,20,4.6,BR,1607189670
Manta,-0.95,-80.73,299.15,74,90,5.1,EC,1607189670
Ende,-8.84,121.66,299.46,79,100,2.09,ID,1607189594
Port Hardy,50.7,-127.42,283.15,70,75,12.3,CA,1607189407
Provideniya,64.38,-173.3,264.33,85,3,1.11,RU,1607189670
Mar del Plata,-38.0,-57.56,289.15,55,20,5.7,AR,1607189670
Katangli,51.71,143.23,262.01,91,7,4.69,RU,1607189670
Varkaus,62.32,27.87,275.37,100,90,5.1,FI,1607189670
Turukhansk,65.82,87.98,262.49,96,100,5.87,RU,1607189670
San Quintín,30.48,-115.95,292.87,25,0,1.57,MX,1607189497
Rikitea,-23.12,-134.97,298.01,76,1,5.7,PF,1607189671
Kearney,40.7,-99.08,281.15,42,1,7.7,US,1607189590
Voi,-3.39,38.56,297.07,81,12,1.61,KE,1607189671
Oodweyne,9.41,45.06,298.46,51,82,2.78,SO,1607189671
Half Moon Bay,37.46,-122.43,285.37,66,1,2.29,US,1607189671
Paita,-5.09,-81.11,299.15,61,0,7.2,PE,1607189671
Grindavik,63.84,-22.43,270.15,100,75,5.7,IS,1607189671
Mt. Pleasant,32.79,-79.86,288.15,58,1,3.6,US,1607189671
Guerrero Negro,27.98,-114.06,293.39,23,0,1.51,MX,1607189671
Codrington,-38.27,141.97,283.51,82,70,7.6,AU,1607189671
Asău,46.43,26.4,278.15,35,100,1.68,RO,1607189672
Pevek,69.7,170.31,255.4,89,54,3.63,RU,1607189672
Dunedin,-45.87,170.5,283.71,70,41,1.79,NZ,1607189542
Busselton,-33.65,115.33,283.65,88,1,2.89,AU,1607189595
Yumen,40.28,97.2,265.04,89,83,0.73,CN,1607189672
Honningsvåg,70.98,25.97,275.24,84,100,8.18,NO,1607189672
Doha,25.29,51.53,297.15,83,0,2.22,QA,1607189460
Hithadhoo,-0.6,73.08,301.46,77,12,8.65,MV,1607189672
Cidreira,-30.18,-50.21,291.83,70,100,5.15,BR,1607189672
Vila Franca do Campo,37.72,-25.43,288.15,72,40,4.1,PT,1607189640
Port Elizabeth,-33.92,25.57,292.15,88,75,7.7,ZA,1607189672
Khatanga,71.97,102.5,259.8,95,100,6.6,RU,1607189672
Bambous Virieux,-20.34,57.76,298.15,83,40,1.5,MU,1607189672
Zomba,-15.39,35.32,296.33,76,77,1.77,MW,1607189673
Port Alfred,-33.59,26.89,293.1,84,35,9.75,ZA,1607189673
Naco,31.33,-109.95,284.26,25,0,2.24,MX,1607189673
Saskylakh,71.92,114.08,257.78,93,100,7.78,RU,1607189673
Avarua,-21.21,-159.78,297.15,88,1,3.1,CK,1607189673
Lebu,-37.62,-73.65,289.46,59,0,5.58,CL,1607189673
Walvis Bay,-22.96,14.51,290.37,80,17,4.6,NA,1607189598
Cape Town,-33.93,18.42,297.15,53,0,5.7,ZA,1607189184
Albany,42.6,-73.97,277.04,96,100,1.79,US,1607189673
Kerman,30.28,57.08,282.15,66,75,3.1,IR,1607189673
Nanortalik,60.14,-45.24,273.38,97,100,3.31,GL,1607189673
Cristalina,-16.77,-47.61,299.22,63,99,1.23,BR,1607189674
Stromness,58.97,-3.3,279.15,81,40,5.7,GB,1607189674
Havelock,34.88,-76.9,288.15,54,1,7.7,US,1607189625
Saint-Philippe,-21.36,55.77,298.15,73,0,1.5,RE,1607189674
Sayansk,54.11,102.16,253.94,93,23,1.73,RU,1607189674
Olginskaya,47.19,39.95,268.15,57,0,9.0,RU,1607189674
Corcoran,36.1,-119.56,282.15,31,75,0.67,US,1607189674
Mthatha,-31.59,28.78,291.15,82,75,4.6,ZA,1607189674
Van Buren,35.44,-94.35,285.93,61,1,2.6,US,1607189674
Umluj,25.02,37.27,295.81,47,0,4.44,SA,1607189674
Ribeira Grande,38.52,-28.7,290.15,63,75,1.0,PT,1607189674
Nioro,13.35,-15.75,306.31,20,56,2.09,GM,1607189674
Bilma,18.69,12.92,299.07,17,0,4.19,NE,1607189675
Ancud,-41.87,-73.82,293.15,52,0,3.6,CL,1607189675
Riyadh,24.69,46.72,297.15,47,40,3.6,SA,1607189463
Kavieng,-2.57,150.8,301.05,73,62,5.23,PG,1607189675
Hermanus,-34.42,19.23,293.15,70,41,4.02,ZA,1607189675
Yar-Sale,66.83,70.83,261.59,94,29,4.58,RU,1607189675
Hualmay,-11.1,-77.61,295.69,65,99,4.83,PE,1607189467
Shepsi,44.04,39.15,282.57,66,0,5.03,RU,1607189675
Pontes e Lacerda,-15.23,-59.34,308.06,36,100,2.46,BR,1607189675
Nikolskoye,59.7,30.79,275.15,87,90,6.0,RU,1607189675
Miandrivazo,-19.52,45.47,301.55,69,76,0.83,MG,1607189675
Puerto Ayora,-0.74,-90.35,300.15,61,0,7.7,EC,1607189675
George Town,5.41,100.34,301.15,74,20,1.0,MY,1607189675
Geraldton,-28.77,114.6,289.15,77,0,8.7,AU,1607189449
Lagoa,39.05,-27.98,288.94,65,65,3.27,PT,1607189676
Iqaluit,63.75,-68.51,264.15,92,75,6.7,CA,1607189676
Naryan-Mar,67.67,53.09,266.4,97,100,6.83,RU,1607189676
Torbay,47.67,-52.73,283.15,93,75,7.2,CA,1607189676
Province of Mantua,45.17,10.78,278.71,96,100,2.68,IT,1607189676
Egvekinot,66.32,-179.17,258.44,96,67,0.44,RU,1607189676
Souillac,-20.52,57.52,298.15,83,40,1.5,MU,1607189676
Poum,-20.23,164.02,297.97,78,0,4.9,NC,1607189676
Bengkulu,-3.8,102.27,297.95,80,91,1.48,ID,1607189676
Anadyr,64.75,177.48,270.15,73,0,5.0,RU,1607189676
Isangel,-19.55,169.27,297.48,86,2,3.01,VU,1607189677
Thompson,55.74,-97.86,263.15,92,90,2.6,CA,1607189677
Bud,39.45,-86.18,277.04,69,40,2.1,US,1607189677
Cap Malheureux,-19.98,57.61,297.04,85,82,2.24,MU,1607189677
Schwarzenbek,53.5,10.48,276.48,91,100,2.45,DE,1607189677
Keti Bandar,24.14,67.45,295.9,87,0,2.13,PK,1607189677
Natal,-5.79,-35.21,304.15,62,20,7.7,BR,1607189556
Shiraz,29.6,52.54,286.15,54,75,2.21,IR,1607189677
Roald,62.58,6.13,276.15,74,40,4.6,NO,1607189677
Tuktoyaktuk,69.45,-133.04,252.15,76,5,5.1,CA,1607189678
Lae,-6.72,146.98,298.03,84,96,3.29,PG,1607189678
Cherskiy,68.75,161.3,251.73,81,83,1.42,RU,1607189678
Portobelo,9.55,-79.65,304.26,70,10,4.47,PA,1607189678
Aykhal,66.0,111.5,258.15,84,0,3.0,RU,1607189678
Ojinaga,29.57,-104.42,279.15,75,90,3.38,MX,1607189678
Kathmandu,27.72,85.32,284.15,81,40,1.5,NP,1607189313
Severo-Kuril'sk,50.68,156.12,271.27,94,100,4.75,RU,1607189678
Marigot,18.07,-63.08,301.15,74,40,3.6,MF,1607189678
Dikson,73.51,80.55,262.22,92,82,5.2,RU,1607189678
Mil'kovo,54.72,158.62,259.75,91,100,0.88,RU,1607189678
Gbarnga,7.0,-9.47,300.75,60,22,1.06,LR,1607189679
PEMEX,18.44,-96.35,299.15,62,18,0.26,MX,1607189679
Semporna,4.48,118.61,298.15,94,20,2.1,MY,1607189390
San Patricio,28.02,-97.52,285.15,66,90,4.1,US,1607189679
Chipiona,36.74,-6.44,285.15,62,20,3.6,ES,1607189679
Lander,42.83,-108.73,277.15,73,1,2.6,US,1607189679
Mabaruma,8.2,-59.78,301.86,73,25,1.97,GY,1607189679
Nouadhibou,20.93,-17.03,296.15,64,20,6.7,MR,1607189679
São João da Barra,-21.64,-41.05,304.15,58,40,7.2,BR,1607189679
Kangar,6.44,100.2,301.15,78,20,2.6,MY,1607189679
Marabu,4.41,114.01,298.15,100,40,1.5,MY,1607189680
Lake Havasu City,34.48,-114.32,287.04,19,1,1.41,US,1607189680
Husavik,66.04,-17.34,259.15,84,0,1.5,IS,1607189680
Guaymas,27.93,-110.9,292.59,32,5,2.01,MX,1607189677
Tisul',55.76,88.31,259.99,91,97,2.18,RU,1607189680
Tura,25.52,90.22,289.62,71,3,1.47,IN,1607189680
Castro,-24.79,-50.01,294.5,86,99,3.0,BR,1607189679
Dingle,11.0,122.67,297.49,91,34,2.55,PH,1607189681
Port Keats,-14.25,129.55,300.14,79,99,2.2,AU,1607189681
Lata,40.16,-8.33,282.04,86,63,0.45,PT,1607189681
Guilin,25.28,110.29,281.15,70,90,1.0,CN,1607189681
Kiunga,-6.12,141.29,296.35,98,100,0.89,PG,1607189681
Krasnokamensk,50.1,118.04,255.18,90,20,2.3,RU,1607189682
Fairbanks,64.84,-147.72,254.15,77,90,1.5,US,1607189682
Airai,-8.93,125.41,289.93,100,100,0.88,TL,1607189682
Hong Kong,22.29,114.16,290.93,68,0,0.45,HK,1607189682
Flinders,-34.58,150.86,294.26,56,75,5.1,AU,1607189682
Arman',59.7,150.17,263.86,94,100,2.87,RU,1607189682
Kapaa,22.08,-159.32,297.15,88,20,4.62,US,1607189682
Ocala,29.19,-82.14,290.37,47,1,4.6,US,1607189589
Port Blair,11.67,92.75,299.75,76,53,5.94,IN,1607189683
Kargasok,59.06,80.86,259.85,95,100,3.72,RU,1607189683
Abnūb,27.27,31.15,292.15,45,0,4.1,EG,1607189683
Lahaina,20.88,-156.68,297.15,69,1,3.1,US,1607189555
Sorong,-0.88,131.25,300.7,81,35,3.79,ID,1607189683
Madingou,-4.15,13.55,296.68,91,82,2.04,CG,1607189683
Imbituba,-28.24,-48.67,292.15,88,75,3.6,BR,1607189683
Blankenberge,51.31,3.13,277.59,80,75,4.6,BE,1607189683
Raychikhinsk,49.78,129.41,257.61,94,0,2.38,RU,1607189683
Santa María del Oro,25.93,-105.37,281.46,50,0,2.96,MX,1607189684
Port Lincoln,-34.73,135.87,286.87,64,52,9.05,AU,1607189684
Khurba,50.41,136.88,260.46,92,0,1.35,RU,1607189684
Moberly,39.42,-92.44,284.26,58,0,0.89,US,1607189543
Margate,51.38,1.39,279.26,73,55,1.79,GB,1607189605
Sur,22.57,59.53,297.06,65,0,2.48,OM,1607189684
Hofn,64.25,-15.21,269.42,81,91,4.0,IS,1607189684
Dera Ghazi Khan,30.06,70.63,288.81,34,1,1.54,PK,1607189436
Jalu,29.03,21.55,291.94,29,32,4.84,LY,1607189685
Litovko,49.24,135.17,263.64,83,0,4.33,RU,1607189685
Norman Wells,65.28,-126.83,262.15,85,75,3.6,CA,1607189685
Alta Floresta,-9.88,-56.09,306.38,49,89,1.71,BR,1607189685
Sovetskiy,61.36,63.58,263.33,87,59,2.4,RU,1607189685
Semīrom,31.42,51.57,277.2,77,94,1.16,IR,1607189685
Lompoc,34.64,-120.46,287.15,42,1,2.1,US,1607189686
Cabo San Lucas,22.89,-109.91,294.26,55,5,1.5,MX,1607189403
Bartow,27.9,-81.84,295.93,83,90,2.6,US,1607189686
Kiryat Gat,31.61,34.76,289.15,72,20,2.1,IL,1607189686
Yerbogachën,61.28,108.01,260.0,94,100,6.96,RU,1607189686
Marzuq,14.4,46.47,292.04,74,19,2.11,YE,1607189687
Rüdesheim an der Nahe,49.85,7.82,277.59,89,100,2.24,DE,1607189687
Monrovia,6.3,-10.8,303.15,70,40,4.32,LR,1607189687
Dom Pedrito,-30.98,-54.67,293.49,59,51,5.3,BR,1607189649
Belyy Yar,53.6,91.39,251.15,83,63,1.0,RU,1607189687
Rocha,-34.48,-54.33,290.74,48,55,5.16,UY,1607189429
Saint Anthony,45.02,-93.22,275.37,69,1,2.1,US,1607189687
Bhag,29.04,67.82,293.25,25,3,1.56,PK,1607189426
Nome,64.5,-165.41,264.15,72,90,4.6,US,1607189486
Qingdao,36.1,120.37,276.48,86,3,1.0,CN,1607189399
Yulara,-25.24,130.99,300.15,28,40,8.2,AU,1607189687
Tūkrah,32.53,20.58,291.2,48,0,8.23,LY,1607189687
Haines Junction,60.75,-137.51,262.15,78,100,3.6,CA,1607189688
Kahului,20.89,-156.47,295.93,72,1,2.1,US,1607189652
Kargalinskaya,43.74,46.48,277.84,70,100,7.11,RU,1607189688
Zhigansk,66.77,123.37,244.89,87,81,7.84,RU,1607189688
Bubaque,11.28,-15.83,300.6,67,76,6.19,GW,1607189688
Padang,-0.95,100.35,298.95,74,100,1.76,ID,1607189513
Sørland,67.67,12.69,275.08,84,97,11.35,NO,1607189688
Lorengau,-2.02,147.27,301.63,72,34,3.2,PG,1607189688
Madison,34.73,-86.57,283.71,81,1,2.37,US,1607189393
Boa Vista,2.82,-60.67,306.15,49,75,4.6,BR,1607189521
Touros,-5.2,-35.46,304.15,58,20,6.7,BR,1607189689
Marshall,34.38,-86.33,283.15,65,1,3.6,US,1607189689
Vila,42.03,-8.16,277.04,91,100,2.68,PT,1607189689
Ostrovnoy,68.05,39.51,274.13,92,100,10.25,RU,1607189689
Prosvet,55.57,65.08,257.43,94,0,2.04,RU,1607189689
Morros,-9.45,-46.3,305.66,40,90,1.89,BR,1607189689
Bluefields,12.01,-83.76,301.15,78,75,2.1,NI,1607189689
Taltal,-25.4,-70.48,293.08,54,11,3.34,CL,1607189689
Tuatapere,-46.13,167.68,282.59,84,77,1.16,NZ,1607189689
Malbork,54.04,19.03,279.26,100,73,6.15,PL,1607189690
Kaeo,-35.1,173.78,285.37,94,26,2.24,NZ,1607189690
Piaçabuçu,-10.41,-36.43,301.3,65,92,6.24,BR,1607189690
San Jose,37.34,-121.89,288.15,57,20,0.55,US,1607189481
Bireun,5.2,96.7,296.47,89,100,0.3,ID,1607189690
Korla,41.76,86.15,268.23,87,84,0.59,CN,1607189690
Akalkot,17.53,76.22,293.93,39,0,5.4,IN,1607189690
Rawson,-43.3,-65.1,296.72,25,0,7.53,AR,1607189690
Ormara,25.21,64.64,298.35,59,0,0.49,PK,1607189690
Machalí,-34.18,-70.67,299.15,34,0,3.24,CL,1607189462
Yellowknife,62.46,-114.35,266.48,100,20,2.6,CA,1607189690
Olafsvik,64.89,-23.71,268.55,87,45,3.54,IS,1607189691
Ilulissat,69.22,-51.1,273.15,97,75,4.6,GL,1607189691
Tilichiki,60.47,166.1,262.54,98,100,3.18,RU,1607189691
Maumere,-8.62,122.21,300.55,79,100,3.41,ID,1607189691
Necochea,-38.55,-58.74,291.89,39,0,5.25,AR,1607189691
Fortuna,40.6,-124.16,284.82,81,1,2.6,US,1607189691
Gejiu,23.31,103.16,277.84,100,65,1.72,CN,1607189691
Penzance,50.12,-5.54,279.26,81,75,9.3,GB,1607189691
Yangi Marg`ilon,40.43,71.72,274.15,64,98,3.1,UZ,1607189691
Suozhen,36.95,118.1,276.48,65,89,2.05,CN,1607189691
Katiola,8.13,-5.1,304.15,52,75,2.1,CI,1607189692
Perth,-31.93,115.83,287.59,67,0,6.2,AU,1607188984
Rabo de Peixe,37.8,-25.58,288.15,72,40,4.1,PT,1607189692
Paamiut,61.99,-49.67,273.65,94,100,9.01,GL,1607189692
Esim,4.87,-2.24,299.7,83,100,3.12,GH,1607189594
Maiduguri,11.85,13.16,299.61,21,35,4.76,NG,1607189692
Florianópolis,-27.61,-48.5,292.15,88,75,3.6,BR,1607189416
Morón,-34.65,-58.62,295.93,40,0,2.6,AR,1607189692
El Salvador,13.83,-88.92,304.15,62,20,1.0,SV,1607189482
Aswān,24.09,32.91,292.22,25,0,4.47,EG,1607189693
Mehamn,71.04,27.85,273.48,96,100,7.65,NO,1607189693
Kununurra,-15.77,128.73,299.15,94,89,2.1,AU,1607189693
Kaitangata,-46.28,169.85,282.04,77,26,0.89,NZ,1607189693
Champerico,14.3,-91.92,302.15,66,75,3.1,GT,1607189693
Tete,-16.16,33.59,299.15,83,75,1.5,MZ,1607189693
Yakeshi,49.28,120.73,253.46,90,66,2.0,CN,1607189693
Waipawa,-41.41,175.52,287.15,76,23,4.6,NZ,1607189693
Sobolevo,54.43,31.9,270.14,96,0,5.64,RU,1607189693
Sokoto,13.06,5.24,300.1,19,80,2.23,NG,1607189693
Quiruvilca,-7.97,-78.2,281.6,85,100,1.84,PE,1607189694
Mujiayingzi,42.12,118.78,260.99,85,69,3.12,CN,1607189694
Sidi Ali,36.1,0.42,282.7,60,49,4.06,DZ,1607189694
Linköping,58.41,15.62,279.15,100,100,3.6,SE,1607189525
Thinadhoo,0.53,72.93,301.3,78,87,7.6,MV,1607189694
College,64.86,-147.8,254.15,77,90,1.5,US,1607189694
Moranbah,-22.0,148.05,293.84,81,15,2.35,AU,1607189694
Māndal,25.45,74.57,292.52,32,0,1.2,IN,1607189694
Kalāleh,37.38,55.49,283.15,81,40,0.88,IR,1607189694
Batagay-Alyta,67.8,130.41,243.93,86,84,0.69,RU,1607189694
Amahai,-3.33,128.92,301.48,89,80,1.97,ID,1607189695
Konotop,51.24,33.2,267.55,90,0,5.12,UA,1607189695
Rockford,42.27,-89.09,276.48,64,20,1.9,US,1607189695
São Filipe,14.9,-24.5,297.54,78,20,4.12,CV,1607189695
Ségou,13.43,-6.22,301.05,15,30,1.79,ML,1607189695
Maceió,-9.67,-35.74,304.15,55,40,6.2,BR,1607189395
Merritt,50.11,-120.79,271.15,92,90,1.0,CA,1607189405
Belmonte,-15.86,-38.88,301.15,69,90,3.6,BR,1607189695
Benjamín Hill,30.17,-111.1,290.93,23,0,4.47,MX,1607189695
Saint-François,46.42,3.91,276.48,92,0,1.5,FR,1607189695
Vao,-22.67,167.48,296.9,87,8,6.31,NC,1607189695
Bosaso,11.28,49.18,298.44,71,87,1.81,SO,1607189695
Camaná,-16.62,-72.71,296.12,61,49,4.07,PE,1607189414
Amapá,1.0,-52.0,305.69,47,70,2.12,BR,1607189696
Sitka,57.05,-135.33,282.15,70,90,4.6,US,1607189696
Mayumba,-3.43,10.66,298.55,88,88,2.4,GA,1607189696
Alofi,-19.06,-169.92,297.15,100,88,1.5,NU,1607189696
Inhambane,-23.86,35.38,296.15,94,75,1.0,MZ,1607189696
Teknāf,20.86,92.31,292.29,69,0,2.63,BD,1607189696
Abu Dhabi,24.47,54.37,298.15,83,0,1.0,AE,1607189696
Yagodnoye,62.55,149.67,248.5,86,100,0.44,RU,1607189696
Port-Gentil,-0.72,8.78,301.15,78,75,5.1,GA,1607189696
Samarai,-10.62,150.67,300.01,82,71,1.21,PG,1607189696
Novy Urengoy,66.08,76.63,259.48,94,79,5.67,RU,1607189697
Basco,20.45,121.97,297.81,87,94,14.32,PH,1607189697
Arkhara,49.42,130.08,258.7,94,4,2.0,RU,1607189697
Hamilton,39.18,-84.53,279.82,60,1,1.5,US,1607189406
Kodinsk,58.69,99.18,260.01,93,100,4.51,RU,1607189697
Pathein,16.78,94.73,295.87,87,12,1.57,MM,1607189697
Sampit,-2.53,112.95,297.42,92,98,0.83,ID,1607189697
Narsaq,60.92,-46.05,272.42,98,100,0.95,GL,1607189697
Kharsia,21.97,83.12,291.48,44,3,0.95,IN,1607189697
Umba,66.69,34.34,275.83,94,100,6.64,RU,1607189697
Orotina,9.91,-84.52,300.15,51,0,5.7,CR,1607189697
Coyhaique,-45.58,-72.07,296.15,35,0,3.1,CL,1607189697
Chipinge,-20.19,32.62,289.9,97,80,3.86,ZW,1607189697
Gawler,-34.6,138.73,288.15,64,46,6.71,AU,1607189698
Ben Tre,10.23,106.38,295.34,89,100,0.96,VN,1607189698
Kirakira,-10.45,161.92,299.29,78,44,1.71,SB,1607189698
Marsá Maţrūḩ,31.35,27.25,292.15,42,0,3.56,EG,1607189698
Presidente Dutra,-5.29,-44.49,307.48,45,34,0.96,BR,1607189698
Malakal,9.53,31.66,300.83,16,0,2.62,SS,1607189698
Vanavara,60.34,102.28,260.97,94,100,5.65,RU,1607189699
Rājāpur,25.38,81.15,292.35,36,0,1.27,IN,1607189699
High Level,58.52,-117.14,263.15,92,75,1.69,CA,1607189699
Zhangjiakou,40.81,114.88,264.98,79,49,0.79,CN,1607189699
Acajutla,13.59,-89.83,299.26,80,67,1.79,SV,1607189575
Muros,42.78,-9.06,280.93,87,63,8.03,ES,1607189699
Zhangye,38.93,100.45,265.34,91,10,0.43,CN,1607189699
Pastavy,55.12,26.83,275.56,89,98,6.38,BY,1607189595
Grand-Santi,4.25,-54.38,305.34,47,100,1.1,GF,1607189699
Machico,32.7,-16.77,288.15,72,40,4.6,PT,1607189699
Selogiri,-7.78,110.87,297.64,88,100,1.37,ID,1607189699
Ovalle,-30.6,-71.2,301.64,30,1,4.71,CL,1607189657
Baykit,61.67,96.37,258.46,89,100,3.64,RU,1607189700
Sim,54.99,57.7,261.86,93,0,0.38,RU,1607189700
Portland,45.52,-122.68,279.82,65,20,7.2,US,1607188971
Bereket,39.24,55.52,274.28,76,0,6.56,TM,1607189700
Pangai,-19.8,-174.35,298.38,84,100,7.82,TO,1607189700
Preobrazheniye,42.9,133.91,269.82,84,0,2.99,RU,1607189700
Taunggyi,20.78,97.03,283.99,100,13,1.06,MM,1607189700
Iroquois Falls,48.77,-80.68,268.15,79,75,2.1,CA,1607189701
Santa Cruz Cabrália,-16.28,-39.02,301.15,69,40,7.2,BR,1607189701
Mwinilunga,-11.74,24.43,291.38,94,71,2.17,ZM,1607189701
La Ronge,55.1,-105.28,274.15,74,99,1.0,CA,1607189701
East London,-33.02,27.91,292.15,88,90,6.2,ZA,1607189701
Corralillo,22.98,-80.59,299.39,75,100,2.37,CU,1607189701
Adré,13.47,22.2,295.25,22,26,1.54,TD,1607189702
Ishigaki,24.34,124.16,295.1,90,100,12.46,JP,1607189703
Chui,-33.7,-53.46,290.01,55,90,4.2,UY,1607189703
Naze,28.37,129.48,293.15,94,75,6.2,JP,1607189687
Along,28.17,94.77,286.3,77,90,1.02,IN,1607189703
Kuusamo,65.97,29.18,273.15,96,90,3.6,FI,1607189433
La Unión,-5.4,-80.75,301.12,49,96,5.55,PE,1607189703
Tiksi,71.69,128.87,246.67,88,41,3.17,RU,1607189704
Merauke,-8.47,140.33,299.74,86,99,4.82,ID,1607189704
Sistranda,63.73,8.83,276.15,74,75,4.6,NO,1607189704
Urucará,-2.54,-57.76,308.57,38,71,1.66,BR,1607189705
Goderich,43.75,-81.72,272.15,80,95,5.7,CA,1607189405
Omboué,-1.57,9.26,297.76,86,70,2.11,GA,1607189705
Damietta,31.42,31.81,291.15,68,40,4.1,EG,1607189705
Lewistown,40.6,-77.57,279.82,58,77,5.36,US,1607189705
Saint-Augustin,51.23,-58.65,275.55,83,73,3.24,CA,1607189705
Gerstetten,48.63,10.03,274.26,90,100,1.98,DE,1607189705
Ust-Tsilma,65.44,52.15,266.49,94,94,3.73,RU,1607189705
Soe,-9.86,124.28,292.96,98,96,1.43,ID,1607189705
Saldanha,-33.01,17.94,302.15,28,9,7.2,ZA,1607189705
Taoudenni,22.68,-3.98,295.8,28,77,4.32,ML,1607189706
Greenville,35.61,-77.37,286.48,50,40,3.6,US,1607189579
Kumul,42.8,93.45,266.77,80,84,2.44,CN,1607189706
Humaitá,-7.51,-63.02,308.63,43,81,1.44,BR,1607189658
Malé,4.17,73.51,302.15,79,75,5.1,MV,1607189706
Mayo,38.89,-76.51,282.59,66,75,5.7,US,1607189706
Várzea da Palma,-17.6,-44.73,303.41,55,100,2.23,BR,1607189529
Tual,-5.67,132.75,302.1,70,91,1.1,ID,1607189707
San Luis,-33.3,-66.34,298.91,27,2,4.42,AR,1607189678
Ardakān,32.31,54.02,283.15,66,0,1.0,IR,1607189707
Dalen,52.7,6.76,273.71,92,20,0.45,NL,1607189707
Vila Velha,-20.33,-40.29,301.15,78,75,6.7,BR,1607189647
Puerto Escondido,15.85,-97.07,303.15,70,40,1.5,MX,1607189707
Kribi,2.95,9.92,299.74,83,37,3.75,CM,1607189707
Karratha,-20.74,116.85,303.05,52,34,4.28,AU,1607189707
Fethiye,36.62,29.12,286.15,93,40,2.1,TR,1607189707
Ternate,0.8,127.4,300.33,79,44,2.1,ID,1607189707
Phulbāni,20.47,84.23,290.0,54,6,1.51,IN,1607189707
Kysyl-Syr,63.9,122.76,249.55,89,70,2.96,RU,1607189708
Kaohsiung City,22.62,120.31,294.15,73,75,3.1,TW,1607189708
Flin Flon,54.77,-101.86,270.15,100,90,2.1,CA,1607189708
Novyy Urgal,51.07,132.56,255.18,91,1,0.62,RU,1607189708
Neuquén,-38.95,-68.06,301.15,26,0,4.1,AR,1607189708
Cabedelo,-6.98,-34.83,302.15,66,75,6.2,BR,1607189708
Ixtlahuacán del Río,20.87,-103.25,293.15,56,40,3.1,MX,1607189708
Temyasovo,52.99,58.1,257.15,84,40,2.0,RU,1607189708
Bangassou,4.74,22.82,298.52,58,72,0.94,CF,1607189708
Gemeente Wageningen,51.97,5.67,277.04,86,75,2.1,NL,1607189708
Batagay,67.63,134.63,241.74,84,90,1.66,RU,1607189709
Batamshinskiy,50.56,58.27,265.15,78,75,4.0,KZ,1607189709
Valdivia,-39.81,-73.25,296.15,53,0,2.1,CL,1607189709
Sterling,39.01,-77.43,282.04,65,75,9.3,US,1607189541
Saint-Leu,-21.15,55.28,298.15,73,0,1.5,RE,1607189709
Panjāb,34.39,67.02,263.4,92,31,0.74,AF,1607189709
Koson,39.04,65.58,275.15,31,0,3.1,UZ,1607189709
Luganville,-15.53,167.17,297.48,85,78,0.55,VU,1607189709
Tayshet,55.93,98.0,259.73,92,91,3.53,RU,1607189709
Esmeraldas,-19.76,-44.31,303.15,51,40,5.1,BR,1607189663
Harper,4.38,-7.72,299.99,80,82,3.07,LR,1607189614
Virginia Beach,36.85,-75.98,286.15,47,20,11.3,US,1607189709
Tarko-Sale,64.92,77.78,260.37,90,39,5.94,RU,1607189709
Grand-Lahou,5.14,-5.02,299.85,83,96,3.6,CI,1607189710
Tambopata,-12.73,-69.18,304.15,66,75,2.1,PE,1607189710
Okitipupa,6.5,4.78,298.97,86,71,1.73,NG,1607189710
Porto Velho,-8.76,-63.9,305.15,55,75,2.6,BR,1607189578
Araouane,18.9,-3.53,299.51,23,15,3.2,ML,1607189711
Ibrā’,22.69,58.53,292.33,71,0,0.13,OM,1607189711
Farrukhnagar,17.08,78.2,293.71,72,40,2.6,IN,1607189711
Mossamedes,-15.2,12.15,292.92,74,28,4.8,AO,1607189711
Kloulklubed,7.04,134.26,298.15,94,75,1.5,PW,1607189711
Wajima,37.4,136.9,282.81,56,90,3.11,JP,1607189711
Itarema,-2.92,-39.92,303.57,57,8,8.49,BR,1607189711
Tutóia,-2.76,-42.27,302.82,66,11,7.21,BR,1607189711
Mount Gambier,-37.83,140.77,283.15,87,75,5.7,AU,1607189463
Quatre Cocos,-20.21,57.76,298.15,83,40,1.5,MU,1607189712
Hella,67.2,14.43,275.15,93,75,3.6,NO,1607189712
Mbandaka,0.05,18.26,297.49,81,87,1.21,CD,1607189712
Niquelândia,-14.47,-48.46,303.97,55,82,1.21,BR,1607189712
Lac du Bonnet,50.25,-96.06,272.59,86,95,2.6,CA,1607189712
Otterup,55.52,10.4,277.04,87,97,4.77,DK,1607189712
Katobu,-4.94,122.53,297.33,89,99,0.99,ID,1607189712
Atar,20.52,-13.05,298.4,27,37,4.83,MR,1607189712
Brae,60.4,-1.35,280.15,70,100,5.7,GB,1607189712
Fiumicino,41.77,12.23,290.15,67,40,12.9,IT,1607189712
Cayenne,4.93,-52.33,304.15,62,75,4.1,GF,1607189712
Abis,9.72,122.94,297.36,86,20,0.74,PH,1607189712
Del Rio,29.36,-100.9,284.15,57,90,2.6,US,1607189712
Karoi,-16.81,29.69,292.88,91,68,2.31,ZW,1607189712
Salisbury,51.07,-1.8,278.15,86,92,4.6,GB,1607189687
Pospelikha,51.95,81.77,254.0,92,0,2.2,RU,1607189713
Culebra,18.3,-65.3,302.15,54,1,4.6,PR,1607189713
North Bay,46.32,-79.47,270.93,79,75,2.1,CA,1607189713
Shima,24.45,117.81,289.15,67,75,3.0,CN,1607189713
Reyes,-14.32,-67.38,304.15,66,75,2.13,BO,1607189713
Katsuura,35.13,140.3,282.15,76,75,4.6,JP,1607189713
Chengde,40.97,117.94,263.73,84,36,1.44,CN,1607189713
Hervey Bay,-25.3,152.85,298.15,76,9,2.68,AU,1607189713
Umuarama,-23.77,-53.33,299.76,75,99,3.14,BR,1607189538
Mitú,1.2,-70.17,300.61,90,100,0.64,CO,1607189713
Sarangani,5.4,125.46,301.68,73,100,3.34,PH,1607189713
Gorontalo,0.54,123.06,298.0,88,44,1.35,ID,1607189714
Praia,14.92,-23.51,300.15,57,75,8.2,CV,1607189418
Grand Gaube,-20.01,57.66,297.04,85,81,2.24,MU,1607189714
Negombo,7.21,79.84,298.15,94,92,0.5,LK,1607189714
Troitsko-Pechorsk,62.71,56.2,260.42,95,87,3.05,RU,1607189714
Cabo Rojo,18.09,-67.15,301.48,69,0,0.45,PR,1607189714
Malia,35.28,25.47,288.71,87,20,1.1,GR,1607189714
Cheyenne,41.14,-104.82,281.48,26,1,6.2,US,1607189714
Lincoln,40.8,-96.67,280.37,52,1,6.7,US,1607189468
Hirara,24.8,125.28,296.12,85,100,10.67,JP,1607189714
Hobyo,5.35,48.53,299.42,75,0,5.58,SO,1607189714
Saint-Joseph,-21.37,55.62,298.15,73,0,1.5,RE,1607189714
Lilongwe,-13.97,33.79,298.78,53,45,2.6,MW,1607189714
Ulaanbaatar,47.91,106.88,246.15,75,0,1.0,MN,1607189714
Hokitika,-42.72,170.97,284.42,84,74,1.05,NZ,1607189715
Berlevåg,70.86,29.09,273.72,93,100,8.59,NO,1607189715
Altay,47.87,88.12,260.37,62,1,1.57,CN,1607189715
Falun,60.6,15.63,275.93,100,90,1.5,SE,1607189715
Santa Rosa,14.31,121.11,300.37,88,75,0.5,PH,1607189532
Sambava,-14.27,50.17,298.05,84,60,2.79,MG,1607189715
Santiago de Cao,-7.96,-79.24,293.15,77,20,6.7,PE,1607189715
Aldergrove,49.06,-122.47,277.59,80,20,2.6,CA,1607189715
Kamenka,51.32,42.77,264.55,89,0,3.86,RU,1607189716
Zhuhai,22.28,113.57,290.15,67,40,5.1,CN,1607189716
Cockburn Town,21.46,-71.14,299.59,76,10,4.57,TC,1607189716
Sinnamary,5.38,-52.95,302.0,68,54,3.34,GF,1607189716
Pacific Grove,36.62,-121.92,287.04,40,1,0.17,US,1607189527
Le Moule,16.33,-61.35,303.15,58,75,4.6,GP,1607189716
Bara,10.37,10.73,298.48,19,61,1.65,NG,1607189716
Kalynivka,49.45,28.53,272.15,100,90,5.0,UA,1607189716
Atherton,53.52,-2.49,278.15,80,64,1.88,GB,1607189716
Lüderitz,-26.65,15.16,290.24,80,1,7.35,NA,1607189716
Ust-Maya,60.42,134.53,252.63,91,100,2.19,RU,1607189716
Curumaní,9.2,-73.54,305.29,50,0,1.47,CO,1607189717
Fuerte Olimpo,-21.04,-57.87,295.12,93,100,3.59,PY,1607189717
Qasigiannguit,68.82,-51.19,273.15,93,75,4.6,GL,1607189717
Kidal,18.44,1.41,300.0,16,61,3.53,ML,1607189717
Valparaíso,-33.04,-71.63,290.15,72,0,4.1,CL,1607189717
Samarinda,-0.5,117.15,297.32,94,92,0.72,ID,1607189717
Honiara,-9.43,159.95,297.15,94,40,1.0,SB,1607189717
Nemuro,43.32,145.57,276.04,78,0,6.0,JP,1607189717
Bousso,10.48,16.71,301.92,16,1,2.07,TD,1607189717
Pangnirtung,66.15,-65.71,267.15,79,90,2.1,CA,1607189717
Boguchany,58.38,97.45,259.12,92,100,4.94,RU,1607189717
Nosy Varika,-20.58,48.53,297.6,89,100,4.91,MG,1607189717
Bimbo,4.26,18.42,306.15,59,20,1.5,CF,1607189718
Port Moresby,-9.44,147.18,299.15,94,20,1.5,PG,1607189718
Abong Mbang,3.98,13.18,297.74,41,48,1.01,CM,1607189718
Qaqortoq,60.72,-46.03,272.61,99,100,2.26,GL,1607189718
San Andrés,12.58,-81.7,301.15,83,40,6.7,CO,1607189648
Madisonville,37.33,-87.5,283.15,56,1,3.1,US,1607189652
Kamloops,50.67,-120.32,272.15,80,75,4.6,CA,1607189718
Río Gallegos,-51.62,-69.22,294.15,35,0,10.8,AR,1607189484
Leningradskiy,69.38,178.42,260.71,88,80,1.76,RU,1607189718
Farah,32.5,62.5,279.78,58,62,1.54,AF,1607189718
Uíge,-7.61,15.06,300.15,65,40,3.1,AO,1607189718
Teahupoo,-17.83,-149.27,300.15,74,40,1.0,PF,1607189718
Kudahuvadhoo,2.67,72.89,300.91,78,81,6.33,MV,1607189719
Marihatag,8.79,126.3,299.23,85,65,3.18,PH,1607189719
Tías,28.96,-13.64,292.15,63,40,8.2,ES,1607189719
Kandrian,-6.22,149.55,298.54,82,21,3.22,PG,1607189719
Talnakh,69.49,88.4,265.15,78,75,9.0,RU,1607189719
Port Hawkesbury,45.62,-61.35,283.71,100,90,2.1,CA,1607189719
Weiden,49.68,12.16,276.48,80,90,1.5,DE,1607189719
De-Kastri,51.47,140.78,261.91,91,0,2.95,RU,1607189719
Laas,46.62,10.7,272.15,92,90,1.5,IT,1607189719
Colac,-38.33,143.58,282.59,97,49,0.89,AU,1607189719
Dagana,16.52,-15.51,306.15,33,0,1.0,MR,1607189719
Andros,37.83,24.93,290.15,82,0,1.93,GR,1607189719
Lavrentiya,65.58,-171.0,263.44,80,0,1.5,RU,1607189719
San Cristobal,7.77,-72.22,302.15,70,20,4.1,VE,1607189719
Port Macquarie,-31.43,152.92,295.15,100,90,2.6,AU,1607189719
Matadi,-5.82,13.45,297.79,86,82,2.6,CD,1607189720
Cárdenas,23.04,-81.2,301.15,69,40,2.6,CU,1607189720
Carauari,-4.88,-66.9,305.58,56,90,1.96,BR,1607189720
Te Anau,-45.42,167.72,278.75,85,48,0.53,NZ,1607189720
Aden,12.78,45.04,299.15,72,6,4.4,YE,1607189720
Gusau,12.16,6.66,300.7,19,63,3.43,NG,1607189720
Mata,40.68,-7.46,279.82,84,85,2.68,PT,1607189721
Gashua,12.87,11.05,301.2,18,37,3.73,NG,1607189721
Knysna,-34.04,23.05,291.15,82,20,4.1,ZA,1607189721
Namtsy,62.72,129.67,249.15,76,0,2.0,RU,1607189721
Loandjili,-4.76,11.86,300.15,88,40,5.1,CG,1607189721
