City,Lat,Lng,Max Temp,Humidity,Cloudiness,Wind Speed,Country,Date
Eydhafushi,5.1,73.07,301.24,77,100,5.43,MV,1607199915
Tomatlán,19.93,-105.25,303.54,49,86,2.69,MX,1607199915
Olafsvik,64.89,-23.71,268.6,88,60,3.23,IS,1607199915
Poum,-20.23,164.02,298.11,77,0,4.57,NC,1607199915
Kushima,31.46,131.23,284.15,82,58,1.7,JP,1607199915
Saint Anthony,45.02,-93.22,278.15,55,1,2.6,US,1607199772
Clyde River,70.47,-68.59,256.15,84,1,6.2,CA,1607199916
Bredasdorp,-34.53,20.04,291.15,82,91,5.7,ZA,1607199916
Nuuk,64.18,-51.72,273.15,92,90,7.2,GL,1607199916
Cape Town,-33.93,18.42,293.71,64,0,6.2,ZA,1607199632
Kapaa,22.08,-159.32,300.15,69,1,3.63,US,1607199916
Dikson,73.51,80.55,261.49,91,97,3.46,RU,1607199916
Vaini,-21.2,-175.2,299.15,83,75,4.1,TO,1607199916
Atuona,-9.8,-139.03,299.14,71,7,8.11,PF,1607199916
Rikitea,-23.12,-134.97,298.18,77,0,5.99,PF,1607199916
Puerto Baquerizo Moreno,-0.9,-89.6,299.15,78,20,7.2,EC,1607199738
Cidreira,-30.18,-50.21,291.66,71,100,4.76,BR,1607199916
Butaritari,3.07,172.79,300.48,79,93,6.95,KI,1607199916
Port Elizabeth,-33.92,25.57,292.15,88,0,6.7,ZA,1607199916
Hobart,-42.88,147.33,286.15,76,40,7.7,AU,1607199623
Hanawa,40.18,140.79,273.14,94,0,1.09,JP,1607199916
Mataura,-46.19,168.86,283.23,71,72,1.49,NZ,1607199916
Yellowknife,62.46,-114.35,267.59,92,20,1.5,CA,1607199916
Gold Coast,-28.0,153.43,298.71,73,65,8.2,AU,1607199839
Vostok,46.49,135.88,256.56,95,80,2.05,RU,1607199917
Quatre Cocos,-20.21,57.76,298.15,83,40,2.1,MU,1607199917
Luena,-11.78,19.92,290.47,91,94,1.71,AO,1607199917
Saint-Médard-en-Jalles,44.9,-0.72,279.26,100,87,3.6,FR,1607199917
Mossamedes,-15.2,12.15,292.21,75,96,3.55,AO,1607199917
Berlevåg,70.86,29.09,274.22,90,100,9.21,NO,1607199917
Yantarnyy,54.87,19.94,281.15,81,0,7.0,RU,1607199917
Temir,49.14,57.13,256.51,92,0,4.36,KZ,1607199917
Nantucket,41.28,-70.1,285.15,93,90,4.6,US,1607199831
Ushuaia,-54.8,-68.3,286.15,62,75,10.8,AR,1607199679
Tigre,-34.43,-58.58,293.15,49,0,6.2,AR,1607199917
Souillac,-20.52,57.52,298.15,83,40,2.1,MU,1607199917
Punta Arenas,-53.15,-70.92,290.15,55,75,11.3,CL,1607199917
Zyryanka,65.75,150.85,240.45,83,77,0.74,RU,1607199917
Pashiya,58.43,58.26,256.83,91,0,1.04,RU,1607199917
Ilulissat,69.22,-51.1,273.15,92,75,5.7,GL,1607199917
Kjøllefjord,70.95,27.35,275.28,87,100,10.46,NO,1607199918
Saskylakh,71.92,114.08,258.45,93,100,6.89,RU,1607199918
Yangi Marg`ilon,40.43,71.72,274.15,59,99,0.46,UZ,1607199918
Kota Belud,6.35,116.43,298.15,94,20,1.0,MY,1607199918
Puerto Ayora,-0.74,-90.35,301.15,58,0,8.2,EC,1607199918
Bluff,-46.6,168.33,282.71,72,64,3.17,NZ,1607199918
Albany,42.6,-73.97,277.04,70,100,0.45,US,1607199918
Hong Kong,22.29,114.16,289.82,72,0,0.45,HK,1607199640
Barrow,71.29,-156.79,260.15,78,75,9.8,US,1607199901
Kruisfontein,-34.0,24.73,292.04,84,13,1.34,ZA,1607199918
Lagoa,39.05,-27.98,288.81,75,29,4.49,PT,1607199918
Tasiilaq,65.61,-37.64,270.15,58,75,4.1,GL,1607199918
Bathsheba,13.22,-59.52,302.15,66,20,6.7,BB,1607199918
Thompson,55.74,-97.86,265.15,92,90,2.6,CA,1607199918
Lagan,45.39,47.37,270.05,92,5,6.88,RU,1607199918
Cabedelo,-6.98,-34.83,300.15,74,40,6.2,BR,1607199918
Tessalit,20.2,1.01,295.7,30,2,3.61,ML,1607199919
Haines Junction,60.75,-137.51,263.15,72,100,4.1,CA,1607199833
Lüderitz,-26.65,15.16,289.06,87,0,5.08,NA,1607199919
Ancud,-41.87,-73.82,294.15,49,0,3.1,CL,1607199919
Nísia Floresta,-6.09,-35.21,301.15,69,40,8.2,BR,1607199919
Naberera,-4.2,36.93,292.25,87,10,3.43,TZ,1607199919
Severo-Kuril'sk,50.68,156.12,271.8,96,100,8.42,RU,1607199919
Dingle,11.0,122.67,297.43,91,37,2.51,PH,1607199919
Marawi,8.0,124.29,297.04,89,91,1.79,PH,1607199919
Hithadhoo,-0.6,73.08,301.3,76,6,8.86,MV,1607199919
Lorengau,-2.02,147.27,301.62,73,41,3.98,PG,1607199919
Springbok,-29.66,17.89,286.91,59,0,1.39,ZA,1607199919
Whitehorse,60.72,-135.05,264.26,92,90,3.6,CA,1607199919
Kununurra,-15.77,128.73,299.15,88,100,1.5,AU,1607199919
Qaanaaq,77.48,-69.36,248.26,68,1,3.37,GL,1607199919
Trairi,-3.28,-39.27,301.36,67,23,5.51,BR,1607199920
Ati,13.22,18.34,301.14,15,71,4.31,TD,1607199920
Şereflikoçhisar,38.94,33.54,280.14,60,0,1.47,TR,1607199920
Gijang,35.24,129.21,274.15,74,0,2.6,KR,1607199920
Khatanga,71.97,102.5,256.19,93,100,9.05,RU,1607199920
Mahébourg,-20.41,57.7,298.15,83,40,2.1,MU,1607199920
Songwa,-3.52,33.52,295.4,74,11,1.43,TZ,1607199920
Calama,-22.47,-68.93,297.15,12,0,11.3,CL,1607199847
Klaksvík,62.23,-6.59,276.15,86,100,4.1,FO,1607199920
Mount Isa,-20.73,139.5,303.15,48,0,3.6,AU,1607199920
Lifford,54.83,-7.48,277.15,93,75,1.0,IE,1607199920
Churapcha,62.0,132.43,250.45,90,100,2.52,RU,1607199787
Hermanus,-34.42,19.23,291.48,78,90,1.79,ZA,1607199861
Makkah al Mukarramah,21.43,39.83,296.53,63,59,3.19,SA,1607199920
Balogo,10.89,124.71,299.05,82,99,1.78,PH,1607199920
Benghazi,32.12,20.07,292.16,50,44,10.14,LY,1607199920
Jadu,31.95,12.03,288.67,52,0,6.44,LY,1607199920
Emerald,-23.53,148.17,296.15,78,0,3.6,AU,1607199920
Luanda,-8.84,13.23,299.15,78,40,3.6,AO,1607199774
Kropotkin,45.44,40.58,272.44,90,0,9.35,RU,1607199921
Padang,-0.95,100.35,298.47,77,84,1.44,ID,1607199921
Laas,46.62,10.7,271.15,92,90,3.6,IT,1607199921
Delta del Tigre,-34.76,-56.39,291.15,55,20,5.7,UY,1607199921
Riyadh,24.69,46.72,297.15,44,0,4.6,SA,1607199560
‘Ewa Beach,21.32,-158.01,300.15,65,1,2.1,US,1607199719
Port Alfred,-33.59,26.89,293.39,84,73,9.68,ZA,1607199921
Lebu,-37.62,-73.65,288.49,66,0,6.05,CL,1607199921
Bilibino,68.05,166.44,253.46,86,100,1.27,RU,1607199921
Scarborough,54.28,-0.4,277.59,89,100,3.44,GB,1607199921
Bethel,41.37,-73.41,277.15,86,90,6.2,US,1607199921
Ubari,26.59,12.78,287.46,33,0,1.26,LY,1607199921
Mar del Plata,-38.0,-57.56,288.15,58,0,5.1,AR,1607199921
Arandis,-22.42,14.97,289.26,86,17,0.3,NA,1607199921
Saldanha,-33.01,17.94,294.15,56,0,3.6,ZA,1607199922
Oktyabr'skiy,54.48,53.47,257.25,89,1,0.31,RU,1607199922
Maryborough,-25.53,152.7,298.71,76,28,3.13,AU,1607199639
Tougue,11.47,-11.6,295.43,31,67,0.41,GN,1607199922
Sambava,-14.27,50.17,297.71,85,40,3.4,MG,1607199922
Arraial do Cabo,-22.97,-42.03,299.15,78,40,7.7,BR,1607199922
Upernavik,72.79,-56.15,259.29,91,100,6.23,GL,1607199922
Tall Kayf,37.08,41.07,284.35,53,96,2.89,TR,1607199922
Carnarvon,-24.87,113.63,293.15,82,99,7.7,AU,1607199922
Osoyoos,49.03,-119.45,274.15,69,2,4.1,CA,1607199922
Vila Velha,-20.33,-40.29,300.15,83,75,6.2,BR,1607199922
Houma,29.6,-90.72,287.04,58,1,3.1,US,1607199650
Tulsīpur,28.13,82.3,286.76,72,0,1.94,NP,1607199922
Buala,-8.14,159.59,300.64,80,53,3.14,SB,1607199922
San Andrés,12.58,-81.7,303.15,66,40,4.1,CO,1607199922
Tuatapere,-46.13,167.68,283.72,70,78,2.17,NZ,1607199922
Russell,32.35,-85.2,290.15,36,1,3.6,US,1607199922
City of San Pedro,14.35,121.02,300.37,94,75,1.0,PH,1607199923
Meulaboh,4.14,96.13,296.77,88,100,2.9,ID,1607199923
Jamestown,42.1,-79.24,274.26,96,90,3.6,US,1607199923
Faya,18.39,42.45,288.15,87,21,3.1,SA,1607199923
Krasnosel'kup,65.7,82.47,262.13,96,100,6.74,RU,1607199923
Dicabisagan,17.08,122.42,298.38,88,100,2.95,PH,1607199923
Bacolod City,10.67,122.95,298.82,86,84,3.68,PH,1607199923
Iqaluit,63.75,-68.51,264.15,85,75,6.2,CA,1607199923
Constitución,-35.33,-72.42,291.47,63,15,3.04,CL,1607199923
Ponta do Sol,32.67,-17.1,289.15,67,40,6.2,PT,1607199923
Vadlapūdi,14.32,79.8,296.9,91,94,3.97,IN,1607199874
Dhārchula,29.85,80.53,282.14,50,38,2.35,IN,1607199923
Korla,41.76,86.15,268.09,87,94,0.81,CN,1607199632
Witu,-2.39,40.44,301.15,78,1,2.6,KE,1607199924
Castro,-24.79,-50.01,291.19,90,100,4.33,BR,1607199765
Biltine,14.53,20.92,297.3,19,97,2.52,TD,1607199924
New Norfolk,-42.78,147.06,284.82,75,59,2.68,AU,1607199924
Nālūt,30.33,10.85,289.92,30,0,4.77,LY,1607199924
Palmer,42.16,-72.33,275.15,93,90,7.7,US,1607199924
St. George's,12.06,-61.75,302.15,74,20,10.3,GD,1607199924
Maniitsoq,65.42,-52.9,272.24,98,100,5.32,GL,1607199924
Taltal,-25.4,-70.48,292.93,55,22,3.24,CL,1607199924
Tual,-5.67,132.75,302.18,69,47,0.6,ID,1607199924
Agua Dulce,18.13,-94.13,298.15,73,90,6.55,MX,1607199924
Shitanjing,39.23,106.34,264.61,90,0,3.47,CN,1607199924
Vogan,6.33,1.53,301.15,83,20,4.6,TG,1607199924
Magistral'nyy,56.17,107.45,256.09,88,100,3.67,RU,1607199924
Ribeira Grande,38.52,-28.7,286.15,71,40,1.5,PT,1607199925
Sistranda,63.73,8.83,275.15,80,0,4.6,NO,1607199925
Grand Gaube,-20.01,57.66,296.48,85,35,1.79,MU,1607199925
Salalah,17.02,54.09,297.15,57,0,1.0,OM,1607199925
Salinópolis,-0.61,-47.36,301.51,73,100,5.84,BR,1607199925
Aykhal,66.0,111.5,260.15,84,90,5.0,RU,1607199925
Plettenberg Bay,-34.05,23.37,291.53,88,30,4.43,ZA,1607199925
Barra de Tecoanapa,16.52,-98.75,301.98,60,99,3.96,MX,1607199925
Srednekolymsk,67.45,153.68,242.04,87,94,0.34,RU,1607199925
Vestmannaeyjar,63.44,-20.27,273.15,90,40,10.3,IS,1607199925
Keti Bandar,24.14,67.45,295.61,88,0,2.02,PK,1607199925
Panguna,-6.32,155.48,293.77,95,100,0.66,PG,1607199925
Margate,51.38,1.39,279.82,73,100,1.79,GB,1607199672
Pionerskiy,54.95,20.23,281.15,81,0,7.0,RU,1607199925
Kavieng,-2.57,150.8,301.01,74,0,5.21,PG,1607199925
Bandarbeyla,9.49,50.81,297.35,81,1,6.08,SO,1607199925
Nouadhibou,20.93,-17.03,293.15,77,95,6.2,MR,1607199925
East London,-33.02,27.91,293.78,86,100,6.8,ZA,1607199925
Busselton,-33.65,115.33,283.85,87,7,3.07,AU,1607199926
Nikolskoye,59.7,30.79,275.15,87,90,3.0,RU,1607199926
Hualmay,-11.1,-77.61,295.43,68,89,4.85,PE,1607199926
Provideniya,64.38,-173.3,264.65,86,0,2.13,RU,1607199926
Saint Paul Harbor,57.79,-152.41,271.15,63,90,4.6,US,1607199926
Lavrentiya,65.58,-171.0,263.3,82,0,1.52,RU,1607199926
Nurobod,40.91,69.8,269.15,85,99,2.1,UZ,1607199926
Caernarfon,53.14,-4.27,278.15,93,14,0.5,GB,1607199926
Jalu,29.03,21.55,291.84,27,26,5.41,LY,1607199926
Bud,39.45,-86.18,278.15,64,1,3.1,US,1607199926
Geraldton,-28.77,114.6,287.15,87,0,4.6,AU,1607199926
Hilo,19.73,-155.09,301.15,61,40,3.1,US,1607199926
Sabang,5.89,95.32,297.73,92,100,4.79,ID,1607199926
Bengkulu,-3.8,102.27,297.77,82,100,2.07,ID,1607199926
Laguna,38.42,-121.42,291.48,36,1,6.2,US,1607199884
Alofi,-19.06,-169.92,302.15,74,75,4.6,NU,1607199927
Tétouan,35.57,-5.37,285.15,62,40,7.7,MA,1607199778
Isangel,-19.55,169.27,299.22,80,2,4.28,VU,1607199927
Kuching,1.55,110.33,297.15,100,40,5.7,MY,1607199927
Revelstoke,50.98,-118.2,271.15,86,90,1.52,CA,1607199927
Muros,42.78,-9.06,279.26,95,47,7.64,ES,1607199927
Itarema,-2.92,-39.92,301.37,69,0,7.6,BR,1607199927
Airai,-8.93,125.41,290.06,100,100,0.92,TL,1607199927
Longyearbyen,78.22,15.64,263.15,66,20,8.2,SJ,1607199927
Yumen,40.28,97.2,264.8,90,100,1.11,CN,1607199927
Ust'-Barguzin,53.45,108.98,262.27,92,99,3.24,RU,1607199927
Zakamensk,50.37,103.29,250.55,83,0,1.18,RU,1607199927
Codrington,-38.27,141.97,283.57,78,100,7.57,AU,1607199927
Sitka,57.05,-135.33,283.15,76,90,7.7,US,1607199928
Mt. Pleasant,32.79,-79.86,289.26,44,1,3.6,US,1607199928
Isheyevka,54.42,48.27,252.15,83,90,1.0,RU,1607199928
Vallenar,-28.57,-70.76,302.01,21,0,4.28,CL,1607199928
Adrar,20.5,-10.07,294.23,32,99,4.31,MR,1607199928
Kunming,25.04,102.72,281.15,100,90,5.0,CN,1607199928
Buncrana,55.13,-7.45,277.15,93,75,1.0,IE,1607199928
Deputatsky,69.3,139.9,245.85,88,93,1.6,RU,1607199928
George Town,5.41,100.34,300.15,83,20,1.5,MY,1607199883
Leningradskiy,69.38,178.42,259.64,88,9,1.11,RU,1607199928
Kisaran,2.98,99.62,295.97,97,100,0.7,ID,1607199928
Port Augusta,-32.5,137.77,285.15,76,58,3.6,AU,1607199928
Imuris,30.78,-110.87,291.18,22,0,5.0,MX,1607199928
Paamiut,61.99,-49.67,273.57,94,100,7.91,GL,1607199928
Yaan,7.38,8.57,302.07,37,17,0.99,NG,1607199929
Yining,29.04,114.56,276.87,76,0,0.37,CN,1607199929
Stonewall,50.13,-97.33,277.15,69,40,4.1,CA,1607199929
Gamba,-2.65,10.0,298.1,89,100,1.77,GA,1607199929
Zhigansk,66.77,123.37,244.47,87,100,8.6,RU,1607199929
Rawson,-43.3,-65.1,297.34,26,17,7.11,AR,1607199644
Augusto Corrêa,-1.02,-46.63,300.62,77,88,3.44,BR,1607199929
Alugan,12.22,125.48,300.37,85,100,3.51,PH,1607199929
Batemans Bay,-35.72,150.18,294.26,66,0,0.89,AU,1607199929
Bambous Virieux,-20.34,57.76,298.15,83,40,2.1,MU,1607199929
Pangai,-19.8,-174.35,298.89,85,100,8.48,TO,1607199929
Nanortalik,60.14,-45.24,273.36,97,100,2.61,GL,1607199929
Kirakira,-10.45,161.92,300.03,77,91,0.21,SB,1607199929
Husavik,66.04,-17.34,254.15,91,0,1.0,IS,1607199929
Solnechnyy,50.72,136.63,260.22,84,0,1.54,RU,1607199929
Mitsamiouli,-11.38,43.28,300.9,69,2,2.25,KM,1607199930
Cabo San Lucas,22.89,-109.91,297.59,40,5,5.1,MX,1607199906
Avarua,-21.21,-159.78,301.15,78,94,5.7,CK,1607199930
Agadez,19.75,10.25,297.8,18,0,4.31,NE,1607199930
Saint George,37.1,-113.58,285.93,14,1,0.97,US,1607199923
Shenjiamen,29.96,122.3,285.07,67,4,4.35,CN,1607199930
Čajniče,43.56,19.07,286.15,65,0,3.1,BA,1607199781
Cururupu,-1.83,-44.87,300.87,72,100,3.43,BR,1607199930
Pevek,69.7,170.31,255.35,89,1,3.23,RU,1607199930
Torbay,47.67,-52.73,283.15,93,75,6.7,CA,1607199930
Oruzgan,32.83,66.0,277.1,72,9,0.4,AF,1607199930
Chara,56.91,118.26,250.42,74,75,2.05,RU,1607199930
Tazovsky,67.47,78.7,265.2,97,100,6.43,RU,1607199930
San Ramon,37.78,-121.98,290.93,29,1,3.6,US,1607199775
Sola,-13.88,167.55,299.0,85,56,3.23,VU,1607199930
Waipawa,-41.41,175.52,289.82,67,0,3.6,NZ,1607199931
Yulara,-25.24,130.99,298.15,38,90,5.1,AU,1607199931
Hasaki,35.73,140.83,279.26,100,40,2.6,JP,1607199931
Capão da Canoa,-29.75,-50.01,291.9,72,100,3.87,BR,1607199931
Bāglung,28.27,83.59,284.51,72,61,1.38,NP,1607199931
Kodino,63.72,39.64,274.03,92,100,5.2,RU,1607199931
Mula,38.04,-1.49,282.59,45,22,2.68,ES,1607199931
Dunbar,38.36,-81.74,280.37,70,75,3.6,US,1607199931
Sakakah,29.97,40.21,285.15,81,40,1.5,SA,1607199931
Acapulco de Juárez,16.86,-99.89,303.15,66,90,3.1,MX,1607199687
Lata,40.16,-8.33,280.93,90,93,0.45,PT,1607199931
Saginaw,43.33,-84.03,274.26,73,40,2.78,US,1607199931
Tiznit Province,29.58,-9.5,284.23,74,0,8.81,MA,1607199932
Pokosnoye,55.53,101.05,259.51,91,100,3.94,RU,1607199932
Cairns,-16.92,145.77,296.15,83,87,1.26,AU,1607199932
Ugoofaaru,5.67,73.0,300.93,77,100,5.36,MV,1607199932
Neiafu,-18.65,-173.98,300.15,83,75,4.6,TO,1607199932
Kautokeino,69.01,23.04,267.06,93,100,1.75,NO,1607199932
Kavaratti,10.57,72.64,301.17,74,24,4.09,IN,1607199932
Belyy Yar,53.6,91.39,252.15,83,20,1.0,RU,1607199932
Susanville,40.42,-120.65,282.04,45,1,1.5,US,1607199704
Karratha,-20.74,116.85,301.98,60,1,1.99,AU,1607199932
Lázaro Cárdenas,17.96,-102.2,301.58,61,17,3.72,MX,1607199932
Sabha,27.04,14.43,288.96,31,0,2.5,LY,1607199932
San Quintín,30.48,-115.95,293.31,25,48,3.6,MX,1607199932
Fortuna,40.6,-124.16,289.26,48,95,2.68,US,1607199932
Saint-Philippe,-21.36,55.77,297.15,69,0,2.6,RE,1607199933
Çay,38.59,31.03,279.06,64,0,1.39,TR,1607199933
Hamilton,39.18,-84.53,280.37,52,40,3.6,US,1607199891
Sazonovo,59.09,35.23,270.52,96,66,3.81,RU,1607199933
Rome,43.21,-75.46,276.15,69,90,6.7,US,1607199680
Almaty,43.25,76.95,264.15,92,90,1.0,KZ,1607199933
Kaitangata,-46.28,169.85,283.17,67,44,1.17,NZ,1607199933
Wuwei,37.93,102.64,265.5,89,0,0.56,CN,1607199933
Ziarat,30.38,67.73,277.19,74,28,2.26,PK,1607199933
Pringsewu,-5.36,104.97,295.81,83,99,0.69,ID,1607199933
Eyl,7.98,49.82,298.04,76,74,4.18,SO,1607199933
Sandakan,5.84,118.12,298.15,100,20,1.0,MY,1607199933
Gladstone,-23.85,151.25,299.15,69,40,4.1,AU,1607199934
Avera,33.19,-82.53,289.15,41,1,5.1,US,1607199934
Cap Malheureux,-19.98,57.61,296.48,85,41,1.79,MU,1607199934
Uíge,-7.61,15.06,292.55,95,99,0.59,AO,1607199934
Kendari,-3.94,122.5,297.85,90,98,0.97,ID,1607199934
Montana,43.41,23.23,283.15,10,11,0.65,BG,1607199934
Tautira,-17.73,-149.15,302.15,66,40,4.1,PF,1607199934
Kaffrine,14.11,-15.55,307.15,41,0,2.1,SN,1607199934
Mana,5.66,-53.78,300.82,75,100,3.57,GF,1607199934
Kutum,14.2,24.67,292.27,25,0,3.49,SD,1607199934
Saint-Leu,-21.15,55.28,297.15,69,0,2.6,RE,1607199934
Il’inskiy,55.62,38.12,265.37,85,0,3.0,RU,1607199934
Katherine,-14.47,132.27,299.15,83,9,1.5,AU,1607199934
Chicama,-7.84,-79.15,293.15,77,0,5.1,PE,1607199934
Boa Vista,2.82,-60.67,303.15,62,40,3.1,BR,1607199656
Conde,-7.26,-34.91,300.15,74,40,6.2,BR,1607199935
Galveston,29.37,-94.97,286.15,76,20,4.6,US,1607199935
San Jose de Guanipa,8.89,-64.17,303.4,54,73,4.34,VE,1607199935
Fort Nelson,58.81,-122.7,273.15,82,75,1.56,CA,1607199935
Yuxia,34.06,108.63,276.48,82,75,1.0,CN,1607199935
Chui,-33.7,-53.46,289.49,57,46,4.27,UY,1607199935
Esperance,-33.87,121.9,285.15,81,90,2.6,AU,1607199935
Barysh,53.66,47.11,260.92,86,1,0.95,RU,1607199935
Tailai,46.38,123.4,262.75,86,87,1.25,CN,1607199935
Dali,25.7,100.18,279.48,82,13,2.03,CN,1607199935
Havre-St-Pierre,50.23,-63.6,273.15,89,75,1.5,CA,1607199935
Havøysund,71.0,24.66,275.15,64,86,16.5,NO,1607199935
Kloulklubed,7.04,134.26,298.15,94,75,2.6,PW,1607199935
Gisborne,-38.65,178.0,290.37,60,0,1.79,NZ,1607199935
Phuket,8.0,98.25,300.93,78,20,3.6,TH,1607199935
Murgab,37.5,61.97,273.15,75,0,4.1,TM,1607199936
Tuktoyaktuk,69.45,-133.04,253.15,76,20,4.6,CA,1607199936
San Rafael,-34.62,-68.33,300.95,23,2,8.11,AR,1607199936
Chokurdakh,70.63,147.92,238.84,82,40,3.34,RU,1607199936
Ginda,30.69,78.49,281.25,49,100,2.45,IN,1607199936
Guerrero Negro,27.98,-114.06,295.94,19,0,1.83,MX,1607199936
Bose,45.46,8.01,278.15,97,100,2.3,IT,1607199936
Pacific Grove,36.62,-121.92,288.71,47,1,3.1,US,1607199936
Barreirinhas,-2.75,-42.83,301.41,68,100,4.8,BR,1607199936
Zharkent,44.16,80.0,269.87,96,80,2.07,KZ,1607199936
Eufaula,31.89,-85.15,288.71,57,0,0.89,US,1607199936
Amahai,-3.33,128.92,300.37,91,100,1.97,ID,1607199722
Strezhevoy,60.73,77.59,264.15,92,90,2.0,RU,1607199936
Rio Grande,-32.03,-52.1,294.15,49,0,5.1,BR,1607199741
Fairbanks,64.84,-147.72,253.15,76,90,2.6,US,1607199715
Benoy,8.98,16.32,298.41,23,55,1.03,TD,1607199937
Mayya,61.73,130.28,250.15,76,0,2.0,RU,1607199937
Port Lincoln,-34.73,135.87,287.17,66,100,8.54,AU,1607199937
Tadine,-21.55,167.88,298.39,79,40,6.08,NC,1607199937
Beringovskiy,63.05,179.32,269.23,95,100,2.06,RU,1607199937
Novaya Mayna,54.15,49.75,252.15,83,90,1.0,RU,1607199937
Westport,41.14,-73.36,279.15,81,90,8.7,US,1607199937
Catumbela,-12.43,13.55,296.9,80,100,2.11,AO,1607199937
Byron Bay,-28.65,153.62,296.48,88,87,5.7,AU,1607199742
Grindavik,63.84,-22.43,271.15,100,90,6.2,IS,1607199937
Kodinsk,58.69,99.18,259.65,93,100,4.73,RU,1607199937
Cherskiy,68.75,161.3,249.89,81,3,1.52,RU,1607199937
Coxim,-18.51,-54.76,305.5,52,100,3.91,BR,1607199937
Vanimo,-2.67,141.3,299.52,83,73,1.5,PG,1607199937
Huadian,42.96,126.75,265.29,87,21,0.94,CN,1607199937
Saint-Ambroise,48.55,-71.33,270.37,63,53,0.5,CA,1607199938
Faanui,-16.48,-151.75,299.91,78,100,8.46,PF,1607199938
Davidson,36.15,-86.78,286.15,43,1,2.1,US,1607199717
Port Hardy,50.7,-127.42,283.15,71,75,6.2,CA,1607199938
Loa Janan,-0.58,117.09,297.28,93,100,0.86,ID,1607199938
Mitake,35.42,137.13,282.15,61,20,4.6,JP,1607199938
Porto-Novo,6.5,2.6,302.15,79,20,5.7,BJ,1607199938
Puri,19.8,85.85,293.15,94,0,1.36,IN,1607199938
Bariloche,-41.15,-71.31,300.15,8,0,5.7,AR,1607199764
Senno,59.53,33.92,273.15,88,100,2.68,RU,1607199938
Salmās,38.2,44.77,273.15,88,90,2.1,IR,1607199923
Batagay-Alyta,67.8,130.41,242.69,84,6,0.81,RU,1607199938
Tutóia,-2.76,-42.27,301.39,71,100,5.82,BR,1607199939
São Filipe,14.9,-24.5,297.45,78,25,4.21,CV,1607199939
Nioro,13.35,-15.75,301.04,28,0,2.8,GM,1607199939
Heraclea,37.51,34.05,277.96,67,0,0.71,TR,1607199939
Pisco,-13.7,-76.22,295.15,73,0,6.7,PE,1607199939
Yel'nya,54.58,33.18,269.14,93,0,4.78,RU,1607199939
Berdigestyakh,62.1,126.7,247.6,88,75,2.91,RU,1607199939
Port Hedland,-20.32,118.57,303.15,79,64,3.1,AU,1607199939
Kula,38.55,28.65,281.21,69,0,0.45,TR,1607199939
Santa Fe,-31.63,-60.7,299.82,28,0,1.79,AR,1607199939
Hobyo,5.35,48.53,299.32,76,10,4.41,SO,1607199939
Rocha,-34.48,-54.33,289.1,53,14,4.83,UY,1607199939
Norman Wells,65.28,-126.83,262.15,78,75,3.1,CA,1607199939
Ishigaki,24.34,124.16,295.11,89,100,13.97,JP,1607199940
Vao,-22.67,167.48,297.17,85,10,6.45,NC,1607199940
Richards Bay,-28.78,32.04,294.8,80,74,4.95,ZA,1607199940
Fuling,29.7,107.39,281.52,70,98,0.62,CN,1607199940
Undory,54.61,48.39,252.15,83,90,1.0,RU,1607199940
Menzelinsk,55.73,53.1,253.15,76,0,3.0,RU,1607199940
Reyes,-14.32,-67.38,303.15,83,75,2.71,BO,1607199940
Key West,24.56,-81.78,301.15,69,40,2.1,US,1607199808
Mehamn,71.04,27.85,274.87,91,100,10.97,NO,1607199940
Hurricane,37.18,-113.29,288.15,14,1,1.49,US,1607199681
Voh,-20.97,164.7,298.33,71,0,1.48,NC,1607199940
Nome,64.5,-165.41,264.15,66,90,3.6,US,1607199746
Waingapu,-9.66,120.26,300.09,80,100,3.64,ID,1607199940
Aksu,41.12,80.26,266.54,91,100,0.27,CN,1607199941
Aklavik,68.22,-135.01,243.15,74,20,1.5,CA,1607199941
Aksay,47.26,39.87,266.15,67,0,9.0,RU,1607199941
Abhā,18.22,42.51,288.15,87,36,3.1,SA,1607199941
Dunedin,-45.87,170.5,285.93,59,45,1.34,NZ,1607199823
Okha,53.57,142.95,263.77,94,82,8.05,RU,1607199941
Kumul,42.8,93.45,265.46,83,66,2.16,CN,1607199941
Odda,60.07,6.55,277.59,77,100,0.45,NO,1607199941
Ibb,13.97,44.18,289.86,81,40,0.85,YE,1607199941
San Patricio,28.02,-97.52,287.15,58,90,5.1,US,1607199941
Coquimbo,-29.95,-71.34,290.15,63,0,6.7,CL,1607199841
Viseu,40.66,-7.91,278.15,88,55,0.45,PT,1607199885
Hambantota,6.12,81.12,295.15,100,5,0.5,LK,1607199941
Inhambane,-23.86,35.38,296.15,83,75,2.1,MZ,1607199941
Las Palmas,28.42,-14.01,291.15,63,40,5.1,ES,1607199941
Shorewood,41.52,-88.2,279.26,60,75,1.15,US,1607199942
Ganzhou,28.82,115.43,278.78,66,0,1.61,CN,1607199942
Kaka,37.35,59.61,273.74,77,0,2.2,TM,1607199942
Tiszaújváros,47.93,21.08,279.15,93,44,2.6,HU,1607199942
Turan,16.07,108.22,293.15,77,40,1.5,VN,1607199942
Kargil,34.57,76.1,265.46,86,84,0.61,IN,1607199942
Akureyri,65.68,-18.09,254.15,91,0,1.0,IS,1607199942
Rio Claro,-22.41,-47.56,305.15,49,20,2.6,BR,1607199658
Konëvo,62.12,39.32,270.86,97,100,4.8,RU,1607199942
Narsaq,60.92,-46.05,273.15,98,75,2.6,GL,1607199942
Cantilan,9.33,125.98,299.21,81,100,1.7,PH,1607199942
Portovelo,-3.72,-79.62,299.15,54,90,2.6,EC,1607199942
Tungor,53.38,142.96,261.7,93,39,7.32,RU,1607199942
Marystown,47.17,-55.15,281.29,91,65,3.81,CA,1607199942
Tezu,27.92,96.17,289.58,57,95,1.08,IN,1607199942
Plavsk,53.71,37.29,268.54,76,0,4.99,RU,1607199733
Popondetta,-8.75,148.25,296.76,93,100,1.25,PG,1607199943
Magdalena,14.2,121.43,299.26,94,75,1.0,PH,1607199943
Half Moon Bay,37.46,-122.43,290.93,54,40,2.6,US,1607199693
Paciran,-6.88,112.38,299.16,88,100,3.56,ID,1607199943
El Bálsamo,15.07,-87.47,301.15,69,40,2.1,HN,1607199943
Vyartsilya,62.18,30.69,274.81,90,100,4.62,RU,1607199943
Yuty,-26.6,-56.25,299.97,58,18,4.74,PY,1607199943
Ostrovnoy,68.05,39.51,274.16,90,100,11.3,RU,1607199943
Bhikangaon,21.87,75.95,293.97,31,1,2.08,IN,1607199943
Lompoc,34.64,-120.46,293.15,32,1,2.6,US,1607199761
Vic,41.93,2.25,275.93,81,99,1.58,ES,1607199943
Marsh Harbour,26.54,-77.06,297.73,70,97,4.48,BS,1607199943
Tshikapa,-6.42,20.8,294.91,93,100,0.89,CD,1607199943
Villarrica,-25.75,-56.43,300.07,56,73,4.58,PY,1607199943
Leeton,-34.57,146.4,286.15,66,0,5.7,AU,1607199943
La Rioja,42.25,-2.5,279.15,81,20,4.6,ES,1607199943
Mumford,5.26,-0.76,300.04,83,100,4.98,GH,1607199944
Barra da Estiva,-13.63,-41.33,296.72,77,23,3.74,BR,1607199944
Ilhabela,-23.78,-45.36,296.17,86,100,4.8,BR,1607199701
Fort Frances,48.6,-93.4,272.15,74,90,2.6,CA,1607199944
Pitimbu,-7.47,-34.81,300.15,74,40,6.2,BR,1607199944
Teguise,29.06,-13.56,290.15,77,40,4.6,ES,1607199944
Vågåmo,61.88,9.1,266.74,87,100,1.46,NO,1607199944
Raudeberg,61.99,5.14,275.93,69,0,3.6,NO,1607199944
Esso,55.93,158.7,258.33,86,100,0.81,RU,1607199944
Honiara,-9.43,159.95,298.15,94,75,2.6,SB,1607199944
Hofn,64.25,-15.21,269.92,88,88,4.68,IS,1607199944
Maralal,1.1,36.7,288.41,75,0,2.48,KE,1607199944
Lábrea,-7.26,-64.8,299.91,88,100,1.31,BR,1607199944
Taoudenni,22.68,-3.98,294.12,31,86,4.42,ML,1607199944
West Bay,19.37,-81.42,301.48,83,40,2.1,KY,1607199864
Quimperlé,47.87,-3.55,280.37,81,75,6.2,FR,1607199945
Dakar,14.69,-17.44,298.15,69,0,7.2,SN,1607199812
Alpena,45.06,-83.43,271.48,74,90,4.1,US,1607199945
Arroyos y Esteros,-25.07,-57.1,302.15,48,20,7.7,PY,1607199945
Phalodi,27.13,72.37,292.8,25,0,2.25,IN,1607199945
Tiksi,71.69,128.87,246.72,87,49,3.03,RU,1607199945
Itaituba,-4.28,-55.98,307.15,56,20,4.1,BR,1607199945
Namatanai,-3.67,152.43,299.94,69,94,3.59,PG,1607199945
Roald,62.58,6.13,277.15,80,0,8.2,NO,1607199945
Yar-Sale,66.83,70.83,261.52,93,33,4.37,RU,1607199945
Fortuna Foothills,32.66,-114.41,295.15,7,1,4.1,US,1607199945
Lianran,24.92,102.48,281.15,100,90,5.0,CN,1607199945
Monte Patria,-30.69,-70.95,302.0,26,0,4.55,CL,1607199945
Zhangye,38.93,100.45,264.93,91,4,0.09,CN,1607199945
Ust'-Kulom,61.69,53.69,262.94,96,100,2.28,RU,1607199946
Inongo,-1.95,18.27,295.47,91,100,0.41,CD,1607199946
Nizhniy Kuranakh,58.84,125.49,254.18,87,100,4.26,RU,1607199946
Makakilo City,21.35,-158.09,301.15,61,1,3.1,US,1607199946
Turukhansk,65.82,87.98,263.01,97,100,5.49,RU,1607199946
Matara,5.95,80.54,297.52,91,99,2.95,LK,1607199946
Javānrūd,34.8,46.52,279.85,66,100,1.49,IR,1607199946
Naze,28.37,129.48,293.15,94,75,5.1,JP,1607199946
Tanabe,33.73,135.37,281.14,63,0,2.46,JP,1607199946
Le Port,-20.94,55.29,296.15,83,0,2.6,RE,1607199946
Beloha,-25.17,45.05,293.92,73,85,5.51,MG,1607199946
Praia da Vitória,38.73,-27.07,287.15,93,75,4.08,PT,1607199946
Mitry-Mory,48.98,2.62,279.26,75,75,5.7,FR,1607199946
Nikki,9.94,3.21,299.68,26,44,0.97,BJ,1607199947
Portland,45.52,-122.68,283.71,56,20,6.7,US,1607199651
La Ronge,55.1,-105.28,278.15,52,44,1.5,CA,1607199947
Kiryat Gat,31.61,34.76,289.15,72,40,1.5,IL,1607199947
Morón,-34.65,-58.62,294.82,43,0,1.79,AR,1607199947
Mongo,12.18,18.69,298.26,20,0,2.12,TD,1607199947
Katangli,51.71,143.23,261.76,89,0,4.6,RU,1607199947
Aleksandrov Gay,50.15,48.57,259.67,94,0,4.64,RU,1607199947
Maceió,-9.67,-35.74,300.15,74,40,6.7,BR,1607199947
High Level,58.52,-117.14,267.15,100,75,2.19,CA,1607199947
Wajima,37.4,136.9,282.58,54,76,2.25,JP,1607199947
Vestmanna,62.16,-7.17,276.15,86,100,4.1,FO,1607199947
Soria,41.67,-2.67,274.82,100,98,7.45,ES,1607199895
San Luis,-33.3,-66.34,298.38,29,42,3.19,AR,1607199673
Cam Ranh,11.92,109.16,298.15,69,40,5.1,VN,1607199948
San Policarpo,12.18,125.51,300.65,84,100,3.74,PH,1607199948
Bammatyurt,43.34,46.61,278.1,83,100,6.92,RU,1607199948
Antofagasta,-23.65,-70.4,294.82,72,20,7.7,CL,1607199888
Cayenne,4.93,-52.33,303.15,66,20,5.1,GF,1607199948
Baruun-Urt,46.68,113.28,254.63,89,65,2.45,MN,1607199948
Diu,20.71,70.98,295.83,56,96,3.25,IN,1607199948
Imbituba,-28.24,-48.67,292.15,88,75,3.6,BR,1607199948
Shenzhen,22.55,114.07,288.15,78,0,2.57,CN,1607199938
Keuruu,62.27,24.7,276.15,93,90,5.1,FI,1607199948
Chlórakas,34.8,32.41,286.15,76,20,2.6,CY,1607199948
Innisfail,-17.53,146.03,294.45,85,99,1.69,AU,1607199948
Oneonta,42.45,-75.06,274.82,80,100,0.89,US,1607199948
Bella Union,-30.28,-57.6,295.93,41,0,5.63,UY,1607199948
Yarmouth,41.71,-70.23,285.15,81,90,4.62,US,1607199949
Auki,-8.77,160.7,298.31,85,100,2.86,SB,1607199949
Collie,-33.37,116.15,280.61,95,0,1.43,AU,1607199949
Dhidhdhoo,6.88,73.1,301.26,73,83,1.72,MV,1607199949
Bridgeport,41.17,-73.2,279.15,81,90,8.7,US,1607199714
Katsuura,35.13,140.3,281.15,75,20,3.6,JP,1607199949
Shibetsu,43.66,145.13,274.45,87,63,2.46,JP,1607199949
Sinnamary,5.38,-52.95,300.91,75,98,3.59,GF,1607199949
Dinghaicun,26.28,119.79,288.15,67,75,4.0,CN,1607199949
Kolokani,13.57,-8.03,299.89,17,44,2.37,ML,1607199847
Lima,-12.04,-77.03,295.93,77,90,5.1,PE,1607199344
Asău,46.43,26.4,277.04,30,100,1.74,RO,1607199949
Bunia,1.57,30.25,290.61,82,0,0.96,CD,1607199914
Tonj,7.27,28.68,299.85,25,52,1.57,SS,1607199949
Grootfontein,-19.57,18.12,297.96,45,47,3.37,NA,1607199949
Halifax,44.65,-63.57,284.26,100,100,6.2,CA,1607199771
General Roca,-39.03,-67.58,304.15,25,20,3.6,AR,1607199950
Ust-Tsilma,65.44,52.15,267.83,94,100,4.06,RU,1607199950
Chifeng,42.27,118.96,261.39,86,100,2.53,CN,1607199950
Sawtell,-30.38,153.1,296.15,88,75,2.1,AU,1607199950
Ous,60.91,61.52,265.16,85,91,2.53,RU,1607199950
Tsiroanomandidy,-18.77,46.03,296.35,82,100,0.55,MG,1607199950
Halmaj,48.25,21.0,282.15,81,75,3.1,HU,1607199950
Goderich,43.75,-81.72,272.15,68,99,5.1,CA,1607199950
Genteng,-8.37,114.15,296.34,91,100,1.5,ID,1607199950
Caravelas,-17.71,-39.25,299.65,72,99,4.66,BR,1607199950
Stulovo,58.72,50.14,261.91,93,38,2.96,RU,1607199950
Araouane,18.9,-3.53,298.16,26,53,3.89,ML,1607199950
Soyo,-6.13,12.37,298.7,88,100,3.11,AO,1607199950
Port Keats,-14.25,129.55,299.92,78,98,2.01,AU,1607199950
Tres Picos,15.87,-93.53,303.91,49,100,0.78,MX,1607199951
Penzance,50.12,-5.54,278.71,86,21,5.7,GB,1607199951
Puerto Escondido,15.85,-97.07,303.15,66,40,4.1,MX,1607199794
Pangody,65.85,74.49,258.72,95,4,4.56,RU,1607199951
Qui Nhon,13.77,109.23,293.93,90,99,6.33,VN,1607199951
Umaria,23.53,80.83,288.62,43,0,1.27,IN,1607199951
Atambua,-9.11,124.89,297.08,90,100,0.67,ID,1607199951
Marzuq,14.4,46.47,291.44,75,0,1.46,YE,1607199951
Ayr,55.46,-4.63,274.15,100,20,2.32,GB,1607199829
Celestún,20.87,-90.4,299.6,77,26,5.03,MX,1607199951
Fallon,39.47,-118.78,279.82,30,1,0.32,US,1607199765
Ketchikan,55.34,-131.65,282.15,100,90,7.7,US,1607199951
Maningrida,-12.07,134.27,300.62,83,100,2.21,AU,1607199951
Ossora,59.24,163.07,262.01,91,86,2.45,RU,1607199952
Kathmandu,27.72,85.32,283.15,93,40,1.5,NP,1607199764
Manavālakurichi,8.13,77.3,300.15,88,75,0.5,IN,1607199952
Lufilufi,-13.87,-171.6,303.15,79,75,1.5,WS,1607199952
Labuhan,-6.88,112.21,299.35,87,100,3.22,ID,1607199952
Noumea,-22.28,166.46,298.71,69,20,1.0,NC,1607199952
Port Shepstone,-30.74,30.45,294.71,84,76,8.95,ZA,1607199952
Santa Helena de Goiás,-17.81,-50.6,306.3,41,82,2.65,BR,1607199952
Alice Springs,-23.7,133.88,299.15,29,40,4.6,AU,1607199952
Gafanha da Nazaré,40.64,-8.71,280.93,90,72,0.45,PT,1607199952
Bayjī,34.93,43.49,286.88,49,2,2.46,IQ,1607199952
Prainha,-1.8,-53.48,306.82,44,79,2.05,BR,1607199952
Sharjah city,25.36,55.4,298.71,78,0,2.1,AE,1607199743
Lockhart,28.62,-81.44,296.48,35,1,3.1,US,1607199952
Verāval,20.9,70.37,296.58,64,32,3.24,IN,1607199953
Yen Bai,21.7,104.87,285.94,76,1,0.55,VN,1607199953
Ciudad Bolivar,8.12,-63.55,304.78,52,93,3.13,VE,1607199953
Vardø,70.37,31.11,274.36,89,100,11.85,NO,1607199953
Çine,37.61,28.06,284.15,93,20,1.5,TR,1607199953
Sisimiut,66.94,-53.67,271.98,95,100,4.58,GL,1607199953
Fairlie,55.76,-4.86,274.82,82,75,1.0,GB,1607199953
Isfahan,32.66,51.68,280.15,75,0,2.1,IR,1607199686
Arman',59.7,150.17,263.51,95,100,2.68,RU,1607199953
Christchurch,-43.53,172.63,288.71,71,6,1.5,NZ,1607199953
Gangāpur,26.48,76.72,290.98,36,0,1.89,IN,1607199953
Talnakh,69.49,88.4,264.15,92,75,7.0,RU,1607199953
Kasiri,8.94,-13.11,301.15,74,75,4.1,SL,1607199954
Urengoy,65.97,78.37,260.69,95,97,5.58,RU,1607199797
Terrace,54.52,-128.6,281.15,93,90,3.1,CA,1607199760
